place_id,name,address,phone,latitude,longitude,rating,opening_hours
ChIJr2ITZoWpQjQRWLITI7rRu9E,小職人 師大店,106台灣臺北市大安區師大路124號,02 2366 1775,25.0216642,121.5280282,4.5,星期一: 11:00 – 22:00 | 星期二: 11:00 – 22:00 | 星期三: 11:00 – 22:00 | 星期四: 11:00 – 22:00 | 星期五: 11:00 – 22:00 | 星期六: 11:00 – 22:00 | 星期日: 11:00 – 22:00
ChIJrcwNhoWpQjQReWlu-uSuGZE,茶壜 師大店,106台灣臺北市大安區師大路49巷5號,02 2368 8759,25.0243812,121.5289089,4.8,星期一: 12:00 – 22:00 | 星期二: 12:00 – 22:00 | 星期三: 12:00 – 22:00 | 星期四: 12:00 – 22:00 | 星期五: 12:00 – 22:00 | 星期六: 12:00 – 22:00 | 星期日: 休息
ChIJ1zuh6JOpQjQRFTbsUFytju0,龍角 Dragon Horn 台電大樓店,106台灣臺北市大安區羅斯福路三段239號,02 3365 3396,25.019413,121.529901,4.5,星期一: 10:10 – 20:50 | 星期二: 10:10 – 20:50 | 星期三: 10:10 – 20:50 | 星期四: 10:10 – 20:50 | 星期五: 10:10 – 20:50 | 星期六: 11:10 – 20:50 | 星期日: 11:10 – 20:50
ChIJ39xxFqOpQjQRrQuexo65duU,迷客夏臺北師大店,10645台灣臺北市大安區師大路45-2號,02 3365 2558,25.0243684,121.5286511,3.1,星期一: 10:00 – 22:30 | 星期二: 10:00 – 22:30 | 星期三: 10:00 – 22:30 | 星期四: 10:00 – 22:30 | 星期五: 10:00 – 22:30 | 星期六: 10:00 – 22:30 | 星期日: 10:00 – 22:30
ChIJozNWtJ6pQjQRR0zsQUa-H48,珍煮丹 中正南門店,100台灣臺北市中正區羅斯福路一段12號,02 2397 1828,25.0319699,121.5185634,3.4,星期一: 10:00 – 20:00 | 星期二: 10:00 – 20:00 | 星期三: 10:00 – 21:00 | 星期四: 10:00 – 21:00 | 星期五: 10:00 – 21:00 | 星期六: 10:00 – 21:00 | 星期日: 10:00 – 21:00
ChIJExhoS4KpQjQRhkIntwUZwOg,天仁茗茶 永康店,106台灣臺北市大安區永康街10巷1號,02 2356 7656,25.0319901,121.5295568,3.7,星期一: 09:30 – 21:00 | 星期二: 09:30 – 21:00 | 星期三: 09:30 – 21:00 | 星期四: 09:30 – 21:00 | 星期五: 09:30 – 21:00 | 星期六: 09:30 – 21:00 | 星期日: 09:30 – 21:00
ChIJO0ztAMOpQjQRlM6WhkCszfc,進發家 東門永康店,106台灣臺北市大安區永康街6之7號,02 3393 8990,25.0323186,121.5296115,3.2,星期一: 11:00 – 21:30 | 星期二: 休息 | 星期三: 11:00 – 21:30 | 星期四: 15:30 – 21:30 | 星期五: 11:00 – 21:30 | 星期六: 11:00 – 21:30 | 星期日: 11:00 – 21:30
ChIJP_9fO2qpQjQR1oN2d3HogoQ,青山-青茶專業製作 台北永康店,106台灣臺北市大安區永康街2號之3,02 2395 5566,25.0332573,121.529745,4.7,星期一: 11:00 – 22:00 | 星期二: 11:00 – 22:00 | 星期三: 11:00 – 22:00 | 星期四: 11:00 – 22:00 | 星期五: 11:00 – 22:30 | 星期六: 10:30 – 22:30 | 星期日: 10:30 – 22:00
ChIJ4_npl76pQjQReIFya8kXfn4,得正#台北古亭計劃,106台灣臺北市大安區和平東路一段19-1號,02 2391 8746,25.0272796,121.5229712,3.6,星期一: 09:30 – 20:00 | 星期二: 09:30 – 20:00 | 星期三: 09:30 – 20:00 | 星期四: 09:30 – 20:00 | 星期五: 09:30 – 20:00 | 星期六: 10:30 – 20:00 | 星期日: 10:30 – 20:00
ChIJj21mffmpQjQRvRhsP61PmE8,清心福全師大店-珍珠奶茶手搖飲料專賣店,106台灣臺北市大安區師大路108號,02 2365 8887,25.0220463,121.5281649,3.7,星期一: 10:00 – 23:00 | 星期二: 10:00 – 23:00 | 星期三: 10:00 – 23:00 | 星期四: 10:00 – 23:00 | 星期五: 10:00 – 23:30 | 星期六: 10:00 – 23:30 | 星期日: 10:00 – 23:00
ChIJ5z65l4KpQjQRw1jyXJXtn5g,CoCo都可 金山店,100台灣臺北市大安區信義路二段91-4號,02 2322 5502,25.034399,121.5271937,3.9,星期一: 10:30 – 21:00 | 星期二: 10:30 – 21:00 | 星期三: 10:30 – 21:00 | 星期四: 10:30 – 21:00 | 星期五: 10:30 – 21:00 | 星期六: 10:30 – 21:00 | 星期日: 10:30 – 21:00
ChIJuTF1EUSpQjQRFQb8cundnBE,五桐號WooTea 台北古亭店,106台灣臺北市大安區和平東路一段17號,02 2391 7553,25.0272864,121.5228567,3.1,星期一: 09:30 – 20:30 | 星期二: 09:30 – 20:30 | 星期三: 09:30 – 20:30 | 星期四: 09:30 – 20:30 | 星期五: 09:30 – 20:30 | 星期六: 10:00 – 20:00 | 星期日: 10:00 – 20:00
ChIJD0Ibt_epQjQR7Xr3PESN3ig,先喝道台北古亭店,106台灣臺北市大安區和平東路一段27號,02 2391 7323,25.0272703,121.5231632,4,星期一: 09:30 – 20:45 | 星期二: 09:30 – 20:45 | 星期三: 09:30 – 20:45 | 星期四: 09:30 – 20:45 | 星期五: 09:30 – 20:45 | 星期六: 10:30 – 20:45 | 星期日: 10:30 – 20:45
ChIJebeJ5NSpQjQRGeRNhIfuaak,三十未央 | 未央茶專門店 | 師大創始店,106台灣臺北市大安區師大路91號,02 6604 1010,25.0230266,121.528551,4.1,星期一: 11:00 – 22:00 | 星期二: 11:00 – 22:00 | 星期三: 11:00 – 22:00 | 星期四: 11:00 – 22:00 | 星期五: 11:00 – 22:30 | 星期六: 11:00 – 22:30 | 星期日: 11:00 – 22:00
ChIJKaJqkO2pQjQRRu4QOdTwmlc,鶴茶樓- 鶴頂紅茶商店(中正寧波西店),100台灣臺北市中正區寧波西街42號,02 2343 5016,25.030854,121.517968,3.6,星期一: 09:00 – 21:00 | 星期二: 09:00 – 21:00 | 星期三: 09:00 – 21:00 | 星期四: 09:00 – 21:00 | 星期五: 09:00 – 21:00 | 星期六: 10:00 – 21:00 | 星期日: 10:00 – 21:00
ChIJ91DXvterQjQRtBAQTuBHmnc,天仁茗茶 信義店,106台灣臺北市大安區信義路二段162號,02 2341 3075,25.0336317,121.5290489,3.5,星期一: 09:30 – 21:00 | 星期二: 09:30 – 21:00 | 星期三: 09:30 – 21:00 | 星期四: 09:30 – 21:00 | 星期五: 09:30 – 21:00 | 星期六: 09:30 – 21:00 | 星期日: 09:30 – 21:00
ChIJZ7OMs4OpQjQRGHS8fryCVxE,喫茶趣ToGo 永康店,106台灣臺北市大安區永康街10巷1號,02 2356 7656,25.0319915,121.5295683,2.8,星期一: 10:30 – 21:00 | 星期二: 10:30 – 21:00 | 星期三: 10:30 – 21:00 | 星期四: 10:30 – 21:00 | 星期五: 10:30 – 21:00 | 星期六: 10:30 – 21:00 | 星期日: 10:30 – 21:00
ChIJq6qqqoupQjQRYbGXSz3WNEc,九品川（今天營業到17：20）假日就是要喝九品川壓,106台灣台北市大安区新生南路三段58號58號-1號1號,0968 555 852,25.0203513,121.5337443,4.7,星期一: 10:30 – 17:20 | 星期二: 10:30 – 17:20 | 星期三: 10:30 – 17:20 | 星期四: 10:30 – 17:20 | 星期五: 10:30 – 17:20 | 星期六: 10:30 – 15:30 | 星期日: 10:30 – 15:30
ChIJuc6ei0mpQjQRGZFciyufVUw,go ba! 自然.湉台北古亭九號店,100028台灣臺北市中正區和平西路一段16號,02 2362 0108,25.0267311,121.521433,5,星期一: 11:00 – 21:00 | 星期二: 11:00 – 21:00 | 星期三: 11:00 – 21:00 | 星期四: 11:00 – 21:00 | 星期五: 11:00 – 21:00 | 星期六: 11:00 – 21:00 | 星期日: 11:00 – 21:00
ChIJabxLPACpQjQRNmbvgAAqbdI,北投紅茶,106台灣臺北市大安區師大路39巷臨12號,,25.0245817,121.5289355,3.2,無資訊
ChIJsw0iSwCpQjQRpgnMEDoa3iQ,MUGU牧谷,106台灣臺北市大安區潮州街54號,02 2322 2922,25.02927,121.523393,4.8,星期一: 11:00 – 21:00 | 星期二: 11:00 – 21:00 | 星期三: 11:00 – 21:00 | 星期四: 11:00 – 21:00 | 星期五: 11:00 – 21:00 | 星期六: 11:00 – 21:00 | 星期日: 休息
ChIJe64LLUWpQjQRWS1Skg7Scko,一沐日 台北永康店,106台灣臺北市大安區麗水街8號,02 2395 6787,25.0328384,121.5289766,4.3,星期一: 10:00 – 20:00 | 星期二: 10:00 – 20:00 | 星期三: 10:00 – 20:00 | 星期四: 10:00 – 20:00 | 星期五: 10:00 – 21:00 | 星期六: 10:00 – 21:00 | 星期日: 10:00 – 20:00
ChIJyRzQjoWpQjQRDHBYXyxSVSs,古早茶坊,106台灣臺北市大安區龍泉街40號,02 2363 3362,25.0243764,121.5293689,4.9,星期一: 16:30 – 23:30 | 星期二: 16:30 – 23:30 | 星期三: 16:30 – 23:30 | 星期四: 16:30 – 23:30 | 星期五: 16:30 – 23:30 | 星期六: 16:30 – 23:30 | 星期日: 16:30 – 23:30
ChIJ14nz7JCpQjQRFsJdW7dHnBw,50嵐 同安店,100台灣臺北市中正區同安街32號,02 2365 3381,25.0243088,121.5217755,4,星期一: 10:00 – 22:30 | 星期二: 10:00 – 22:30 | 星期三: 10:00 – 22:30 | 星期四: 10:00 – 22:30 | 星期五: 10:00 – 22:30 | 星期六: 10:00 – 22:30 | 星期日: 10:00 – 22:30
ChIJr66uZgCpQjQR_YTZzAL78CU,TERRY OOLONG ROASTER,106台灣臺北市大安區金華街223 之13號,02 2351 1313,25.0298711,121.5294774,4.3,星期一: 11:00 – 20:00 | 星期二: 11:00 – 20:00 | 星期三: 11:00 – 20:00 | 星期四: 11:00 – 20:00 | 星期五: 11:00 – 20:00 | 星期六: 11:00 – 20:00 | 星期日: 11:00 – 20:00
ChIJB44JRlypQjQRBnIlIbx0oK8,清心福全金山南店-珍珠奶茶手搖飲料專賣店,106台灣臺北市大安區金山南路二段27-1號,02 2394 8058,25.0332462,121.5273051,4.3,星期一: 10:30 – 20:30 | 星期二: 10:30 – 20:30 | 星期三: 10:30 – 20:00 | 星期四: 10:30 – 20:30 | 星期五: 10:30 – 20:30 | 星期六: 10:30 – 20:00 | 星期日: 10:30 – 19:00
ChIJhweNbJCpQjQR8axVpDImOcA,沐慕茶飲,100台灣臺北市中正區南昌路二段190-1號,02 2367 6376,25.0243177,121.524002,4.5,星期一: 11:00 – 20:45 | 星期二: 11:00 – 20:45 | 星期三: 11:00 – 20:45 | 星期四: 11:00 – 20:45 | 星期五: 11:00 – 20:45 | 星期六: 12:00 – 20:45 | 星期日: 12:00 – 20:45
ChIJd7XQCDupQjQRtzEQSiAWUNU,季緣 CHI YUAN | 師大店 | Premium Taiwanese Tea,10647台灣臺北市大安區師大路141號,02 2366 0799,25.0214519,121.5280722,4.5,星期一: 11:00 – 22:00 | 星期二: 11:00 – 22:00 | 星期三: 11:00 – 22:00 | 星期四: 11:00 – 22:00 | 星期五: 11:00 – 22:30 | 星期六: 11:00 – 22:30 | 星期日: 11:00 – 22:00
ChIJZfjwQIKpQjQRJPgiquiJaJg,康青龍 東門永康店,106台灣臺北市大安區永康街2-7號,0982 076 799,25.0329942,121.5297549,4.2,星期一: 10:30 – 21:00 | 星期二: 10:30 – 21:00 | 星期三: 10:30 – 21:00 | 星期四: 10:30 – 21:00 | 星期五: 10:30 – 21:00 | 星期六: 10:30 – 21:00 | 星期日: 10:30 – 21:00
ChIJ8QPDFYKpQjQRA_4pMsCDNEw,SOMA特調飲品 永康旗艦店,106台灣臺北市大安區永康街7巷3號,02 2396 8662,25.0332025,121.530154,4.1,星期一: 11:00 – 21:00 | 星期二: 11:00 – 21:00 | 星期三: 11:00 – 21:00 | 星期四: 11:00 – 21:00 | 星期五: 11:00 – 22:00 | 星期六: 11:00 – 22:00 | 星期日: 11:00 – 21:00
ChIJnWlpY4OpQjQReCYAV36ozGA,谷庄茶奶(普洱茶飲）,106台灣臺北市大安區金華街128號之七,0907 617 335,25.0299642,121.5275981,4.5,星期一: 10:30 – 20:00 | 星期二: 10:30 – 20:00 | 星期三: 10:30 – 20:00 | 星期四: 10:30 – 20:00 | 星期五: 10:30 – 20:00 | 星期六: 10:30 – 20:00 | 星期日: 10:30 – 20:00
ChIJ-6aN6lGpQjQR8cJQedhQgfk,蓋斯茶古亭站,100台灣臺北市中正區和平西路一段12-1號,02 2368 1869,25.0267455,121.5214851,4.8,星期一: 10:00 – 20:00 | 星期二: 10:00 – 20:00 | 星期三: 10:00 – 20:00 | 星期四: 10:00 – 20:00 | 星期五: 10:00 – 20:00 | 星期六: 11:30 – 20:00 | 星期日: 休息
ChIJNyZeI5upQjQRmjNcH9N6Z-w,玖仰Jiuyang-永康門市,106台灣臺北市大安區永康街9-1號,02 2358 1613,25.0329427,121.5299258,4.2,星期一: 11:00 – 22:00 | 星期二: 11:00 – 22:00 | 星期三: 11:00 – 22:00 | 星期四: 11:00 – 22:00 | 星期五: 11:00 – 22:00 | 星期六: 11:00 – 22:00 | 星期日: 11:00 – 22:00
ChIJ2QX7OUKpQjQRhEvhk_6fNPg,冇月冇日 冰萃茶茶飲專賣店,106台灣臺北市大安區麗水街9巷10號1樓,02 2322 3006,25.0304626,121.5292115,4.9,星期一: 10:00 – 22:00 | 星期二: 10:00 – 22:00 | 星期三: 10:00 – 22:00 | 星期四: 10:00 – 22:00 | 星期五: 10:00 – 22:00 | 星期六: 10:00 – 22:00 | 星期日: 10:00 – 22:00
ChIJjcd3uoOpQjQRCAXOYiTLqI4,50嵐 永康店,10650台灣臺北市大安區永康街14巷2號,02 2395 2000,25.0312691,121.52938,3.5,星期一: 11:00 – 22:00 | 星期二: 11:00 – 22:00 | 星期三: 11:00 – 22:00 | 星期四: 11:00 – 22:00 | 星期五: 11:00 – 22:00 | 星期六: 11:00 – 22:00 | 星期日: 11:00 – 22:00
ChIJr4nltcKpQjQRu1YVuKgV7ks,日日裝茶 - 中正南門店(線上訂購95折）,100台灣臺北市中正區羅斯福路一段24-1號,02 2726 5828,25.031576,121.5188369,3.7,星期一: 10:00 – 21:30 | 星期二: 10:00 – 21:30 | 星期三: 10:00 – 21:30 | 星期四: 10:00 – 21:30 | 星期五: 10:00 – 21:30 | 星期六: 10:30 – 21:30 | 星期日: 10:30 – 21:30
ChIJt1jYeIWpQjQRbqCnuoM02mc,天下佈武日月潭紅茶,106台灣臺北市大安區師大路50號1 樓,02 2366 1190,25.0246959,121.5282196,3.7,星期一: 08:00 – 23:55 | 星期二: 08:00 – 23:55 | 星期三: 08:00 – 23:55 | 星期四: 08:00 – 23:55 | 星期五: 08:00 – 23:55 | 星期六: 08:00 – 23:55 | 星期日: 08:00 – 23:55
ChIJVUEA1LupQjQRyHta-PK-sKQ,麻古茶坊台北古亭店,100台灣臺北市中正區羅斯福路二段142號1樓,02 2368 2768,25.0257629,121.522959,2.7,星期一: 10:30 – 22:00 | 星期二: 10:30 – 22:00 | 星期三: 10:30 – 22:00 | 星期四: 10:30 – 22:00 | 星期五: 10:30 – 22:00 | 星期六: 11:00 – 22:00 | 星期日: 11:00 – 22:00
ChIJsYgvbtCrQjQRUPYEleNGgWA,麗采蝶茶館,106台灣台北市大安区信义路二段198巷40號1樓,02 2395 5060,25.0301992,121.5313022,4.5,星期一: 11:30 – 20:30 | 星期二: 11:30 – 20:30 | 星期三: 11:30 – 20:30 | 星期四: 11:30 – 20:30 | 星期五: 11:30 – 20:30 | 星期六: 11:30 – 20:00 | 星期日: 11:30 – 18:30
ChIJ0TANZoKpQjQRo5NEAdFj46w,喫茶趣ToGo(信義店),106台灣臺北市大安區信義路二段162號,02 2341 3075,25.0336381,121.529066,2.5,星期一: 10:30 – 21:00 | 星期二: 10:30 – 21:00 | 星期三: 10:30 – 21:00 | 星期四: 10:30 – 21:00 | 星期五: 10:30 – 21:00 | 星期六: 10:30 – 21:00 | 星期日: 10:30 – 21:00
ChIJfVGWf5CpQjQR-SBl1YCCC3s,北極熊抱,100台灣臺北市中正區南昌路二段181號,02 2364 6272,25.0254174,121.522927,4.4,"星期一: 12:00 – 15:00, 17:30 – 21:30 | 星期二: 12:00 – 15:00, 17:30 – 21:30 | 星期三: 12:00 – 15:00, 17:30 – 21:30 | 星期四: 12:00 – 15:00, 17:30 – 21:30 | 星期五: 12:00 – 15:00, 17:30 – 21:30 | 星期六: 休息 | 星期日: 休息"
ChIJTQ12ytipQjQRVpDwV47FT1E,薈上飲,106台灣臺北市大安區龍泉街38號,02 2368 7788,25.0244297,121.5293407,4.2,星期一: 11:00 – 00:00 | 星期二: 11:00 – 00:00 | 星期三: 11:00 – 00:00 | 星期四: 11:00 – 00:00 | 星期五: 11:00 – 00:00 | 星期六: 11:00 – 00:00 | 星期日: 11:00 – 00:00
ChIJmYy2WX2pQjQRq1Jmh1lfEsI,牧方MooCubed x 師大,106台灣臺北市大安區師大路143號,02 2367 6711,25.0214322,121.5280517,3.9,星期一: 11:00 – 22:00 | 星期二: 11:00 – 22:00 | 星期三: 11:00 – 23:00 | 星期四: 11:00 – 23:00 | 星期五: 11:00 – 23:00 | 星期六: 11:00 – 23:00 | 星期日: 11:00 – 22:00
ChIJQ_OhEIupQjQRaZOebBWucbE,50嵐 公館店,10091台灣臺北市中正區汀州路三段116-1號,02 2368 4599,25.0141682,121.5334028,3,星期一: 11:00 – 21:00 | 星期二: 11:00 – 21:00 | 星期三: 11:00 – 21:00 | 星期四: 11:00 – 21:00 | 星期五: 11:00 – 21:00 | 星期六: 11:00 – 21:00 | 星期日: 11:00 – 21:00
ChIJGSZSEbmpQjQRaeA4PyFdxRo,龜記茗品 公館店,10090台灣臺北市中正區汀州路三段174-1號,02 2366 0667,25.0131979,121.5346735,4,星期一: 12:00 – 22:00 | 星期二: 12:00 – 22:00 | 星期三: 12:00 – 22:00 | 星期四: 12:00 – 22:00 | 星期五: 12:00 – 22:00 | 星期六: 12:00 – 22:00 | 星期日: 12:00 – 22:00
ChIJjbLDiXOpQjQRags-iK7zOCk,大茗本位製茶堂-台北公館店,100台灣臺北市中正區汀州路三段158之1號,02 2367 3535,25.013489,121.534339,3.6,星期一: 10:30 – 22:00 | 星期二: 10:30 – 22:00 | 星期三: 10:30 – 22:00 | 星期四: 10:30 – 22:00 | 星期五: 10:30 – 22:00 | 星期六: 10:30 – 22:00 | 星期日: 10:30 – 22:00
ChIJpxbhBsupQjQR8v3U18_-sYg,泰讚了 thai like tea 公館店,100台灣臺北市中正區羅斯福路三段286巷18號,0989 777 696,25.0157723,121.5323869,4.3,星期一: 10:30 – 23:30 | 星期二: 10:30 – 23:30 | 星期三: 10:30 – 23:30 | 星期四: 10:30 – 23:30 | 星期五: 10:30 – 23:30 | 星期六: 10:30 – 23:30 | 星期日: 10:30 – 23:30
ChIJG6WUeLipQjQRgmJS_HxFV_I,得正#台北公館計劃,100台灣臺北市中正區羅斯福路三段316巷10-2號,02 2368 3130,25.0155973,121.5323792,4,星期一: 11:00 – 21:00 | 星期二: 11:00 – 21:00 | 星期三: 11:00 – 21:00 | 星期四: 11:00 – 21:00 | 星期五: 11:00 – 21:30 | 星期六: 11:00 – 21:30 | 星期日: 11:00 – 21:30
ChIJjZdHFgyrQjQRTZ2kEIXEOmY,茶山小_TEASSENTIAL（和平總店）,106台灣臺北市大安區和平東路三段123號,02 2732 2728,25.0246259,121.551729,4.8,星期一: 09:30 – 21:00 | 星期二: 09:30 – 21:00 | 星期三: 10:30 – 21:00 | 星期四: 12:30 – 21:00 | 星期五: 09:30 – 21:00 | 星期六: 09:30 – 21:00 | 星期日: 11:00 – 21:00
ChIJN6jRyYqpQjQRhOJRE7PsNQ0,十杯 Spade Tea - 公館店,100台灣臺北市中正區汀州路三段277號,02 2369 0900,25.0123898,121.5354529,4.1,星期一: 11:00 – 23:00 | 星期二: 11:00 – 23:00 | 星期三: 11:00 – 23:00 | 星期四: 11:00 – 23:00 | 星期五: 11:00 – 23:00 | 星期六: 11:00 – 23:00 | 星期日: 11:00 – 23:00
ChIJFwrcSdKrQjQRinvEjPHl52g,50嵐 復興店,10664台灣臺北市大安區復興南路二段182號,02 2709 3698,25.0272958,121.5432742,3.3,星期一: 10:00 – 22:00 | 星期二: 10:00 – 22:00 | 星期三: 10:00 – 22:00 | 星期四: 10:00 – 22:00 | 星期五: 10:00 – 22:00 | 星期六: 10:00 – 22:00 | 星期日: 10:00 – 22:00
ChIJmXIR2y6qQjQRFHqZuDFx3nw,MTB米堤銀行｜鮮乳．茶（大安總行）創始店,106台灣臺北市大安區復興南路二段327號,02 2738 9238,25.0238137,121.5435645,4.8,星期一: 09:00 – 20:00 | 星期二: 09:00 – 20:00 | 星期三: 09:00 – 20:00 | 星期四: 09:00 – 20:00 | 星期五: 09:00 – 20:00 | 星期六: 09:30 – 18:00 | 星期日: 09:30 – 18:00
ChIJe9O8rxypQjQRIV0aNmcpn2s,烏弄原生茶飲(台北公館店),10091台灣臺北市中正區羅斯福路四段90巷2-1號,02 2367 6727,25.013848,121.534696,4,星期一: 11:00 – 22:30 | 星期二: 11:00 – 22:30 | 星期三: 11:00 – 22:30 | 星期四: 11:00 – 22:30 | 星期五: 11:00 – 22:30 | 星期六: 11:00 – 22:30 | 星期日: 11:00 – 22:30
ChIJ7Q3BnACpQjQRgrcBHuxYsug,進發家 台北公館店,100台灣臺北市中正區汀州路三段116號,02 2368 1550,25.014162,121.53339,4.1,星期一: 11:00 – 22:15 | 星期二: 11:00 – 22:15 | 星期三: 11:00 – 22:15 | 星期四: 11:00 – 22:15 | 星期五: 11:00 – 22:15 | 星期六: 11:00 – 22:30 | 星期日: 11:00 – 22:30
ChIJjctFSkGpQjQRyK0ZFNDKODA,迷客夏Milksha 臺北公館店,10090台灣臺北市中正區羅斯福路三段316巷10之2號1樓,02 2368 7707,25.0155688,121.5323069,3.6,星期一: 10:30 – 21:30 | 星期二: 10:30 – 21:30 | 星期三: 10:30 – 21:30 | 星期四: 10:30 – 21:30 | 星期五: 10:30 – 21:30 | 星期六: 11:00 – 21:30 | 星期日: 11:00 – 21:30
ChIJQVWymYupQjQR9l0jcfyF15I,巴伯Q奶 Bubble tea 黑糖珍珠牛奶專賣店,100台灣臺北市中正區羅斯福路三段316巷4號,0921 903 358,25.0159261,121.5327984,4.4,星期一: 15:30 – 23:00 | 星期二: 15:30 – 23:00 | 星期三: 15:30 – 23:00 | 星期四: 15:30 – 23:00 | 星期五: 15:30 – 23:00 | 星期六: 15:30 – 23:00 | 星期日: 15:30 – 23:00
ChIJD7OSliapQjQRWRmT3y_ypLc,清心福全公館店-珍珠奶茶手搖飲料專賣店,10090台灣臺北市中正區羅斯福路三段316巷1-6號,02 2368 2363,25.0158903,121.5325063,3.5,星期一: 24 小時營業 | 星期二: 24 小時營業 | 星期三: 24 小時營業 | 星期四: 24 小時營業 | 星期五: 24 小時營業 | 星期六: 24 小時營業 | 星期日: 24 小時營業
ChIJe0kr_kypQjQRdxVzTIPZuks,go ba ! 自然.湉 台北公館店,100046台灣臺北市中正區羅斯福路三段316巷10號1樓,02 2365 2398,25.0155959,121.5323954,4.5,星期一: 11:00 – 22:00 | 星期二: 11:00 – 22:00 | 星期三: 11:00 – 22:00 | 星期四: 11:00 – 22:00 | 星期五: 11:00 – 22:00 | 星期六: 11:00 – 22:00 | 星期日: 11:00 – 22:00
ChIJEat10q-pQjQRrji2jzlzzQE,麻古茶坊台北公館店,100台灣臺北市中正區羅斯福路三段316巷5號,02 2367 2307,25.0156934,121.5322764,4,星期一: 10:00 – 22:00 | 星期二: 10:00 – 22:00 | 星期三: 10:00 – 22:00 | 星期四: 10:00 – 22:00 | 星期五: 10:00 – 22:00 | 星期六: 10:00 – 22:00 | 星期日: 10:00 – 22:00
ChIJK5Ev_7GpQjQRcBsq1a5FSNs,快樂檸檬HappyLemon 公館店,100台灣臺北市中正區羅斯福路四段24巷14號,02 2368 0618,25.0150088,121.5327284,4.5,星期一: 11:30 – 20:30 | 星期二: 11:30 – 20:30 | 星期三: 11:30 – 20:30 | 星期四: 11:30 – 20:30 | 星期五: 11:30 – 20:30 | 星期六: 11:30 – 20:30 | 星期日: 11:30 – 20:30
ChIJ68eigeCpQjQRE4Kc01kdfgQ,發發 公館牧場,100台灣臺北市中正區汀州路三段164號,02 2365 6618,25.0133798,121.534466,4.8,星期一: 11:00 – 22:00 | 星期二: 11:00 – 22:00 | 星期三: 11:00 – 22:00 | 星期四: 11:00 – 22:00 | 星期五: 11:00 – 22:00 | 星期六: 11:00 – 22:00 | 星期日: 11:00 – 22:00
ChIJK-K_cnKpQjQRXegvDNrnE-M,黛黛茶 DailyDae公館秀泰店,100台灣臺北市中正區羅斯福路四段136巷3號,02 2368 5950,25.0127214,121.535457,4.4,星期一: 10:00 – 23:00 | 星期二: 10:00 – 23:00 | 星期三: 10:00 – 23:00 | 星期四: 10:00 – 23:00 | 星期五: 10:00 – 01:00 | 星期六: 10:00 – 01:00 | 星期日: 10:00 – 23:00
ChIJq06XaACrQjQRhDpGYiWsJDI,白杯子Y.CUP焙茶研所（師大分部店）/冷熱飲、飲料、茶飲、手搖杯專賣店,116台灣臺北市文山區羅斯福路五段88之2號1樓,02 2933 2285,25.0075972,121.5380191,4.7,星期一: 10:30 – 20:30 | 星期二: 10:30 – 20:30 | 星期三: 10:30 – 20:30 | 星期四: 10:30 – 20:30 | 星期五: 10:30 – 20:30 | 星期六: 10:30 – 20:30 | 星期日: 10:30 – 20:30
ChIJp4RyVQCpQjQRpukvqbEFJ54,一沐日 公館羅斯福店,100台灣臺北市中正區羅斯福路四段16號,02 2367 5001,25.0157601,121.5329959,3.6,星期一: 10:00 – 21:00 | 星期二: 10:00 – 21:00 | 星期三: 10:00 – 21:00 | 星期四: 10:00 – 21:00 | 星期五: 10:00 – 21:00 | 星期六: 11:00 – 21:00 | 星期日: 11:00 – 21:00
ChIJMdlHJS-qQjQR5BfbVK3ZMKQ,tc shop,106台灣臺北市大安區和平東路二段118巷62號,02 2738 0886,25.0218452,121.5427998,4.5,星期一: 08:00 – 20:00 | 星期二: 08:00 – 20:00 | 星期三: 08:00 – 20:00 | 星期四: 08:00 – 20:00 | 星期五: 08:00 – 20:00 | 星期六: 休息 | 星期日: 08:00 – 20:00
ChIJnTWFtoSrQjQRqxjZdWBqnRg,珍珠窩復興店,106台灣臺北市大安區復興南路二段151巷43號,02 2701 1108,25.0284896,121.5455145,4.8,星期一: 10:30 – 20:00 | 星期二: 10:30 – 20:00 | 星期三: 10:30 – 20:00 | 星期四: 10:30 – 20:00 | 星期五: 10:30 – 20:00 | 星期六: 10:30 – 17:30 | 星期日: 休息
ChIJo6jEOKSrQjQRyhYHcW6J8yc,COMEBUY 科技大樓店,106台灣臺北市大安區和平東路二段118巷57號,02 2736 2606,25.0226297,121.542887,4.6,星期一: 10:30 – 21:30 | 星期二: 10:30 – 21:30 | 星期三: 10:30 – 21:30 | 星期四: 10:30 – 21:30 | 星期五: 10:30 – 21:30 | 星期六: 10:30 – 21:30 | 星期日: 10:30 – 21:30
ChIJ4YOKj26rQjQRnZNf5jgh2T4,茶曉伊 Tea Know YOU 茶飲專賣-科技大樓店,106034台灣臺北市大安區復興南路二段329號,02 2377 8885,25.0237825,121.5435626,4.8,星期一: 09:00 – 20:00 | 星期二: 09:00 – 20:00 | 星期三: 09:00 – 20:00 | 星期四: 09:00 – 20:00 | 星期五: 09:00 – 20:00 | 星期六: 09:00 – 20:00 | 星期日: 09:00 – 20:00
ChIJJ1dg5iyrQjQR37OsqskutMo,七盞茶 大安復興南店,106台灣臺北市大安區復興南路二段206號,02 2701 6288,25.0266645,121.5431999,3.6,星期一: 10:00 – 22:00 | 星期二: 10:00 – 22:00 | 星期三: 10:00 – 22:00 | 星期四: 10:00 – 22:00 | 星期五: 10:00 – 22:00 | 星期六: 10:00 – 22:00 | 星期日: 10:00 – 22:00
ChIJuQvWWQCpQjQR6WMOIGDR_4c,茶予抱報,100台灣臺北市中正區羅斯福路四段126號,02 2367 7617,25.0130869,121.5357003,4.9,星期一: 10:30 – 21:30 | 星期二: 10:30 – 21:30 | 星期三: 10:30 – 21:30 | 星期四: 10:30 – 21:30 | 星期五: 10:30 – 21:30 | 星期六: 10:30 – 21:30 | 星期日: 10:30 – 21:30
ChIJKdnSdACpQjQRRx-7IPDipCk,一番茶 師大店,106台灣臺北市大安區師大路45之2號,02 3365 3199,25.0243627,121.52865,4.2,星期一: 10:00 – 22:00 | 星期二: 10:00 – 22:00 | 星期三: 10:00 – 22:00 | 星期四: 10:00 – 22:00 | 星期五: 10:00 – 22:30 | 星期六: 10:00 – 22:30 | 星期日: 10:00 – 22:00
ChIJjwZ6tVarQjQRYetPz2HfYRY,喝冰U茶飲冰品店,106台灣臺北市大安區復興南路二段148號,0908 236 607,25.0282394,121.5431999,4,星期一: 11:30 – 21:30 | 星期二: 11:30 – 21:30 | 星期三: 11:30 – 21:30 | 星期四: 11:30 – 21:30 | 星期五: 11:30 – 21:30 | 星期六: 12:00 – 21:30 | 星期日: 休息
ChIJGcjXBgCrQjQR-xo56G-cs0w,CHAPPii 開心茶事 科技大樓店,106台灣臺北市大安區和平東路二段289號,02 2755 1578,25.0249768,121.5445622,4,星期一: 10:30 – 20:00 | 星期二: 10:30 – 20:00 | 星期三: 10:30 – 20:00 | 星期四: 10:30 – 20:00 | 星期五: 10:30 – 20:00 | 星期六: 11:00 – 18:00 | 星期日: 11:00 – 18:00
ChIJTdQY24upQjQRomufg8IuySo,綠蓋茶‧館,106台灣台北市大安区新生南路三段98號3樓,02 2366 1785,25.0169982,121.5329259,3.9,星期一: 11:00 – 21:50 | 星期二: 11:00 – 21:50 | 星期三: 11:00 – 21:50 | 星期四: 11:00 – 21:50 | 星期五: 11:00 – 21:50 | 星期六: 11:00 – 21:50 | 星期日: 11:00 – 21:50
ChIJzY6ULgCrQjQRisJ7YqLJJnU,清心福全大安台科店-珍珠奶茶手搖飲料專賣店,106台灣臺北市大安區基隆路四段43號,02 2732 8277,25.0138934,121.5426702,4.6,星期一: 09:30 – 21:00 | 星期二: 09:30 – 21:00 | 星期三: 09:30 – 21:00 | 星期四: 09:30 – 21:00 | 星期五: 09:30 – 21:00 | 星期六: 10:30 – 19:00 | 星期日: 10:30 – 19:00
ChIJQ5-2O_apQjQR_M0_BN2q1gI,念念泡沫紅茶公館店,100台灣臺北市中正區羅斯福路四段72-1號,02 2365 9589,25.0144679,121.534272,4.4,星期一: 11:00 – 21:30 | 星期二: 11:00 – 21:30 | 星期三: 11:00 – 21:30 | 星期四: 11:00 – 21:30 | 星期五: 11:00 – 21:30 | 星期六: 11:00 – 21:30 | 星期日: 11:00 – 21:30
ChIJrxaSLS-pQjQRDg0wNmssIT8,奶奶的熊/手沖泰式奶茶「公館總店」,100台灣臺北市中正區羅斯福路四段90巷2之1號,0985 024 604,25.013868,121.5347619,5,星期一: 15:30 – 23:30 | 星期二: 15:30 – 23:30 | 星期三: 03:30 – 23:30 | 星期四: 03:30 – 23:30 | 星期五: 15:30 – 23:30 | 星期六: 15:30 – 23:30 | 星期日: 15:30 – 23:50
ChIJv4yKCAOrQjQRpMQnAUmOgZQ,可不可熟成紅茶 科技大樓店,106台灣臺北市大安區和平東路二段307號,02 2709 8989,25.0249697,121.5450054,3.8,星期一: 10:00 – 20:00 | 星期二: 10:00 – 20:00 | 星期三: 10:00 – 20:00 | 星期四: 10:00 – 20:00 | 星期五: 10:00 – 20:00 | 星期六: 10:00 – 20:00 | 星期日: 10:00 – 20:00
ChIJwRdAMrmpQjQRXr6Aolp4yo8,水療系-台北公館樂園,100台灣臺北市中正區羅斯福路三段282號,02 2365 6988,25.0164986,121.5321045,5,星期一: 11:00 – 20:30 | 星期二: 11:00 – 20:30 | 星期三: 11:00 – 20:30 | 星期四: 11:00 – 20:30 | 星期五: 11:00 – 20:30 | 星期六: 11:00 – 20:30 | 星期日: 11:00 – 20:30
ChIJwVbMZmSrQjQRG1Ao8Puhicc,方最茗品 和平店,"58號, No. 58號和平東路二段118巷大安區臺北市台灣 106",0971 636 659,25.0218877,121.5428027,4,星期一: 11:00 – 19:45 | 星期二: 11:00 – 19:45 | 星期三: 11:00 – 19:45 | 星期四: 11:00 – 19:45 | 星期五: 11:00 – 19:45 | 星期六: 11:00 – 19:45 | 星期日: 11:00 – 19:45
ChIJr1kR8EypQjQRtNRRjQxOxbM,可不可熟成紅茶 台北公館店,100台灣臺北市中正區汀州路三段174號,02 2368 0270,25.0131935,121.5346507,3.6,星期一: 10:30 – 22:30 | 星期二: 10:30 – 22:30 | 星期三: 10:30 – 22:30 | 星期四: 10:30 – 22:30 | 星期五: 10:30 – 23:00 | 星期六: 10:30 – 23:00 | 星期日: 10:30 – 22:30
ChIJCahvDoupQjQRFbdDBRrHOsY,COMEBUY_台北公館店,100台灣臺北市中正區汀州路三段195號,02 2362 1969,25.014584,121.533206,3.9,星期一: 11:00 – 22:00 | 星期二: 11:00 – 22:00 | 星期三: 11:00 – 22:00 | 星期四: 11:00 – 22:00 | 星期五: 11:00 – 22:00 | 星期六: 11:00 – 22:00 | 星期日: 11:00 – 22:00
ChIJmdQQdoupQjQRXbuKj3Ywky0,墾丁蛋蛋ㄉㄨㄞ奶,100台灣臺北市中正區汀州路三段165號,02 2368 5550,25.0152995,121.5321294,4.2,星期一: 11:30 – 22:30 | 星期二: 11:30 – 22:30 | 星期三: 11:30 – 22:30 | 星期四: 11:30 – 22:30 | 星期五: 11:30 – 22:30 | 星期六: 11:30 – 22:30 | 星期日: 11:30 – 22:30
ChIJ1V2JefKpQjQRDyl0SimHxkc,甘蔗の媽媽-台北公館店,100台灣臺北市中正區汀州路三段130號,02 2365 5075,25.0139172,121.5337206,3.7,星期一: 11:00 – 22:00 | 星期二: 11:00 – 22:00 | 星期三: 11:00 – 22:00 | 星期四: 11:00 – 22:00 | 星期五: 11:00 – 22:30 | 星期六: 11:00 – 22:30 | 星期日: 11:00 – 22:00
ChIJcz2coh2qQjQR9ebcrPPN-Pw,清心福全萬隆店-珍珠奶茶手搖飲料專賣店,11676台灣臺北市文山區羅斯福路五段190號,02 2930 5939,25.0038687,121.5384798,2.6,星期一: 11:00 – 22:00 | 星期二: 11:00 – 22:00 | 星期三: 11:00 – 22:00 | 星期四: 11:00 – 22:00 | 星期五: 11:00 – 22:00 | 星期六: 11:00 – 22:00 | 星期日: 11:00 – 22:00
ChIJTSlTFx2qQjQR3C9-iBKp-gg,50嵐 萬隆店,11681台灣臺北市文山區羅斯福路五段217號,02 2930 4678,25.0022359,121.5391057,3.8,星期一: 10:30 – 22:00 | 星期二: 10:30 – 22:00 | 星期三: 10:30 – 22:00 | 星期四: 10:30 – 22:00 | 星期五: 10:30 – 22:00 | 星期六: 10:30 – 22:00 | 星期日: 10:30 – 22:00
ChIJpRikqIupQjQReY-lvJQgZdg,喫茶趣ToGo(公館店),100台灣臺北市中正區羅斯福路四段36號,02 2369 5955,25.0153469,121.5334473,2.1,星期一: 11:00 – 21:30 | 星期二: 11:00 – 21:30 | 星期三: 11:00 – 21:30 | 星期四: 11:00 – 21:30 | 星期五: 11:00 – 21:30 | 星期六: 11:00 – 21:30 | 星期日: 11:00 – 21:30